{
    "parks": [
        {
            "name": "Band-e Amir National Park",
            "address": "Band-e-Amir National Park, Afghanistan",
            "latitude": 34.8456753,
            "longitude": 67.22497609999999,
            "state": "Bamyan",
            "country": "Afghanistan",
            "region": "Asia"
        },
        {
            "name": "Wakhan National Park",
            "address": "Wakhan Corridor Nature Refuge, Afghanistan",
            "latitude": 37.1020511,
            "longitude": 73.7477857,
            "state": "Badakhshan",
            "country": "Afghanistan",
            "region": "Asia"
        },
        {
            "name": "Arevik National Park",
            "address": "Arevik National Park, Armenia",
            "latitude": 38.9984628,
            "longitude": 46.2614349,
            "state": null,
            "country": "Armenia",
            "region": "Asia"
        },
        {
            "name": "Dilijan National Park",
            "address": "Dilijan National Park, Mount, Haghartsin, Armenia",
            "latitude": 40.7876254,
            "longitude": 44.8650945,
            "state": null,
            "country": "Armenia",
            "region": "Asia"
        },
        {
            "name": "Lake Arpi National Park",
            "address": "Lake Arpi National Park, Armenia",
            "latitude": 41.0222914,
            "longitude": 43.5533735,
            "state": "Shirak Province",
            "country": "Armenia",
            "region": "Asia"
        },
        {
            "name": "Sevan National Park",
            "address": "Sevan National Park, M10, Севан, Armenia",
            "latitude": 40.3659286,
            "longitude": 45.3351942,
            "state": "Gegharkunik Province",
            "country": "Armenia",
            "region": "Asia"
        },
        {
            "name": "Absheron National Park",
            "address": "Absheron National Park, The Caspian region, Bakı, Azerbaijan",
            "latitude": 40.2966821,
            "longitude": 50.3488317,
            "state": null,
            "country": "Azerbaijan",
            "region": "Asia"
        },
        {
            "name": "Ag-Gel National Park",
            "address": "Agh Gol National Park, Azerbaijan",
            "latitude": 40.0147388,
            "longitude": 47.702618,
            "state": null,
            "country": "Azerbaijan",
            "region": "Asia"
        },
        {
            "name": "Altyaghach National Park",
            "address": "Altiaghaj National Park, Xızı-Altıağac yolu, Altiaghach 8000, Azerbaijan",
            "latitude": 40.8762849,
            "longitude": 49.0273549,
            "state": null,
            "country": "Azerbaijan",
            "region": "Asia"
        },
        {
            "name": "Göygöl National Park",
            "address": "Lake Göygöl, Azerbaijan",
            "latitude": 40.4129331,
            "longitude": 46.3296857,
            "state": null,
            "country": "Azerbaijan",
            "region": "Asia"
        },
        {
            "name": "Hirkan National Park",
            "address": "Hirkan National Park, Azerbaijan",
            "latitude": 38.4742521,
            "longitude": 48.6927919,
            "state": null,
            "country": "Azerbaijan",
            "region": "Asia"
        },
        {
            "name": "Samur-Yalama National Park",
            "address": "Samur-Yalama Milli Parkı, Xaçmaz, Azerbaijan",
            "latitude": 41.8181708,
            "longitude": 48.5885617,
            "state": null,
            "country": "Azerbaijan",
            "region": "Asia"
        },
        {
            "name": "Shahdag National Park",
            "address": "Shahdag National Park, Azerbaijan",
            "latitude": 40.4355381,
            "longitude": 46.5423126,
            "state": null,
            "country": "Azerbaijan",
            "region": "Asia"
        },
        {
            "name": "Shirvan National Park",
            "address": "Shirvan National Park, Azerbaijan",
            "latitude": 39.5644499,
            "longitude": 49.1218497,
            "state": null,
            "country": "Azerbaijan",
            "region": "Asia"
        },
        {
            "name": "Zangezur National Park",
            "address": "Zangezur National Park, Azerbaijan, Ordubad, Azerbaijan",
            "latitude": 39.0024812,
            "longitude": 46.0671223,
            "state": "Nakhchivan Autonomous Republic",
            "country": "Azerbaijan",
            "region": "Asia"
        },
        {
            "name": "Baroiyadhala National Park",
            "address": "Baroiyadhala National Park, Azerbaijan",
            "latitude": 26.8971951,
            "longitude": 95.4341441,
            "state": null,
            "country": "Azerbaijan",
            "region": "Asia"
        },
        {
            "name": "Bhawal National Park",
            "address": "Bhawal National Park, পরাজেন্দ্রপুর বাস স্ট, Dhaka - Mymensingh Hwy, Gazipur 1700, Bangladesh",
            "latitude": 24.0902047,
            "longitude": 90.4073129,
            "state": "Dhaka Division",
            "country": "Bangladesh",
            "region": "Asia"
        },
        {
            "name": "Char Kukri-Mukri Wildlife Sanctuary",
            "address": "Char Kukri Mukri Wildlife Sanctuary, Bangladesh",
            "latitude": 21.9211858,
            "longitude": 90.64411009999999,
            "state": "Barisal Division",
            "country": "Bangladesh",
            "region": "Asia"
        },
        {
            "name": "Hail Haor Wildlife Sanctuary",
            "address": "Hail Haor, Bangladesh",
            "latitude": 24.3784578,
            "longitude": 91.67121039999999,
            "state": "Sylhet Division",
            "country": "Bangladesh",
            "region": "Asia"
        },
        {
            "name": "Hazarikhil Wildlife Sanctuary",
            "address": "Teknaf Wildlife Sanctuary, Z1098, Bangladesh",
            "latitude": 20.9054841,
            "longitude": 92.2606945,
            "state": "Chittagong Division",
            "country": "Bangladesh",
            "region": "Asia"
        },
        {
            "name": "Himchari National Park",
            "address": "Himchari National Park, Z1098, Cox's Bazar, Bangladesh",
            "latitude": 21.349663,
            "longitude": 92.0420152,
            "state": "Chittagong Division",
            "country": "Bangladesh",
            "region": "Asia"
        },
        {
            "name": "Kaptai National Park",
            "address": "Kaptai National Park,Kaptai, Bangladesh",
            "latitude": 22.5028182,
            "longitude": 92.2018475,
            "state": "Chittagong Division",
            "country": "Bangladesh",
            "region": "Asia"
        },
        {
            "name": "Khadim Nagar National Park",
            "address": "Khadimnagar National Park, Sylhet 3100, Bangladesh",
            "latitude": 24.9569894,
            "longitude": 91.93435550000001,
            "state": "Sylhet Division",
            "country": "Bangladesh",
            "region": "Asia"
        },
        {
            "name": "Kuakata National Park",
            "address": "কূয়াকাটা সমুদ্রসৈকত Kuakata Sea Beach, Bus Station, Kuakata, Bangladesh",
            "latitude": 21.8137014,
            "longitude": 90.1227583,
            "state": "Barisal Division",
            "country": "Bangladesh",
            "region": "Asia"
        },
        {
            "name": "Lawachara National Park",
            "address": "Lawachara National Park, 3220 Sreemangal - Bhanugach Rd, 3220, Bangladesh",
            "latitude": 24.3414031,
            "longitude": 91.7977647,
            "state": "Sylhet Division",
            "country": "Bangladesh",
            "region": "Asia"
        },
        {
            "name": "Madhupur National Park",
            "address": "Madhupur National Park, Madhupur, Bangladesh",
            "latitude": 24.7037754,
            "longitude": 90.0772963,
            "state": "Dhaka Division",
            "country": "Bangladesh",
            "region": "Asia"
        },
        {
            "name": "Medhakachhapia National Park",
            "address": "Himchari National Park, Z1098, Cox's Bazar, Bangladesh",
            "latitude": 21.349663,
            "longitude": 92.0420152,
            "state": "Chittagong Division",
            "country": "Bangladesh",
            "region": "Asia"
        },
        {
            "name": "Nawabganj National Park",
            "address": "Sheikh Russel National Park, Nawabganj, Bangladesh",
            "latitude": 25.429749,
            "longitude": 89.05981059999999,
            "state": "Rangpur Division",
            "country": "Bangladesh",
            "region": "Asia"
        },
        {
            "name": "Nijhum Dwip National Park",
            "address": "Nijhum Dwip National Park, নিঝুম দ্বীপ, 3890, Bangladesh",
            "latitude": 22.0937347,
            "longitude": 91.007168,
            "state": "Chittagong Division",
            "country": "Bangladesh",
            "region": "Asia"
        },
        {
            "name": "Pablakhali Wildlife Sanctuary",
            "address": "Tengragiri Wildlife Sanctuary, Haringhata, Bangladesh",
            "latitude": 21.9634633,
            "longitude": 89.9636886,
            "state": "Barisal Division",
            "country": "Bangladesh",
            "region": "Asia"
        },
        {
            "name": "Ramsagar National Park",
            "address": "Park Of Ramsagar, Tajpur, Auliapur, Bangladesh",
            "latitude": 25.5536852,
            "longitude": 88.6236322,
            "state": "Rangpur Division",
            "country": "Bangladesh",
            "region": "Asia"
        },
        {
            "name": "Satchari National Park",
            "address": "Satchori National Park, Chunarughat, Bangladesh",
            "latitude": 24.1246454,
            "longitude": 91.4445892,
            "state": "Sylhet Division",
            "country": "Bangladesh",
            "region": "Asia"
        },
        {
            "name": "Sheikh Jamal Inani National Park",
            "address": "Sheikh Jamal Inani National Park, Z1098, Bangladesh",
            "latitude": 21.1400174,
            "longitude": 92.0820092,
            "state": "Chittagong Division",
            "country": "Bangladesh",
            "region": "Asia"
        },
        {
            "name": "Jigme Dorji National Park",
            "address": "Jigme Dorji National Park, Bhutan",
            "latitude": 27.8188913,
            "longitude": 89.7284203,
            "state": null,
            "country": "Bhutan",
            "region": "Asia"
        },
        {
            "name": "Jigme Singye Wangchuck National Park",
            "address": "Jigme Singye Wangchuck National Park, Bhutan",
            "latitude": 27.219973,
            "longitude": 90.4125181,
            "state": null,
            "country": "Bhutan",
            "region": "Asia"
        },
        {
            "name": "Phrumsengla National Park",
            "address": "Phrumsengla National Park, Bhutan",
            "latitude": 27.3114655,
            "longitude": 90.9438468,
            "state": null,
            "country": "Bhutan",
            "region": "Asia"
        },
        {
            "name": "Royal Manas National Park",
            "address": "Royal Manas National Park, Bhutan",
            "latitude": 27.030523,
            "longitude": 90.7152749,
            "state": null,
            "country": "Bhutan",
            "region": "Asia"
        },
        {
            "name": "Wangchuck Centennial National Park",
            "address": "Wangchuck Centennial National Park, Bhutan",
            "latitude": 27.866146,
            "longitude": 90.60137309999999,
            "state": "Bumthang",
            "country": "Bhutan",
            "region": "Asia"
        },
        {
            "name": "Ulu Temburong National Park",
            "address": "Ulu Temburong National Park, Brunei",
            "latitude": 4.448129,
            "longitude": 115.2126293,
            "state": "Temburong District",
            "country": "Brunei",
            "region": "Asia"
        },
        {
            "name": "Botum Sakor National Park",
            "address": "Botum Sakor National Park, Cambodia",
            "latitude": 11.0942726,
            "longitude": 103.2201855,
            "state": "Koh Kong Province",
            "country": "Cambodia",
            "region": "Asia"
        },
        {
            "name": "Kep National Park",
            "address": "Kep National Park, Krong Kaeb, Cambodia",
            "latitude": 10.4920228,
            "longitude": 104.2998423,
            "state": "Kep Province",
            "country": "Cambodia",
            "region": "Asia"
        },
        {
            "name": "Kirirom National Park",
            "address": "Kirirom National Park, Cambodia",
            "latitude": 11.321403,
            "longitude": 104.053676,
            "state": null,
            "country": "Cambodia",
            "region": "Asia"
        },
        {
            "name": "Phnom Kulen National Park",
            "address": "Phnom Kulen, Cambodia",
            "latitude": 13.6143845,
            "longitude": 104.1109417,
            "state": "Siem Reap Province",
            "country": "Cambodia",
            "region": "Asia"
        },
        {
            "name": "Preah Monivong National Park",
            "address": "Preah Monivong Bokor National Park, National Hwy 3, Cambodia",
            "latitude": 10.6422226,
            "longitude": 104.0273743,
            "state": null,
            "country": "Cambodia",
            "region": "Asia"
        },
        {
            "name": "Ream National Park",
            "address": "Ream National Park, Cambodia",
            "latitude": 10.5328765,
            "longitude": 103.6941673,
            "state": "Sihanoukville",
            "country": "Cambodia",
            "region": "Asia"
        },
        {
            "name": "Southern Cardamom National Park",
            "address": "Southern Cardamom National Park, Cambodia",
            "latitude": 11.4308067,
            "longitude": 103.6682086,
            "state": "Koh Kong Province",
            "country": "Cambodia",
            "region": "Asia"
        },
        {
            "name": "Virachey National Park",
            "address": "Virachey National Park, Cambodia",
            "latitude": 14.1885321,
            "longitude": 106.8650383,
            "state": null,
            "country": "Cambodia",
            "region": "Asia"
        },
        {
            "name": "Arxan National Forest Park",
            "address": "Arxan National Forest Park, Aershan Shi, Xingan Meng, Neimenggu Zizhiqu, China",
            "latitude": 47.297072,
            "longitude": 119.9018599,
            "state": "Neimenggu Zizhiqu",
            "country": "China",
            "region": "Asia"
        },
        {
            "name": "Beidaihe District",
            "address": "Beidaihe District, Qinhuangdao, Hebei, China",
            "latitude": 39.834596,
            "longitude": 119.484522,
            "state": "Hebei",
            "country": "China",
            "region": "Asia"
        },
        {
            "name": "Benxi Shuidong National Park",
            "address": "China, Liaoning Sheng, Benxi Shi, Benxi Manzuzizhixian, 本桓公路谢家崴子村 Benxi Water Cave Scenic Area",
            "latitude": 41.302483,
            "longitude": 124.085271,
            "state": "Liaoning Sheng",
            "country": "China",
            "region": "Asia"
        },
        {
            "name": "Mount Cangyan",
            "address": "Mount Cangyan, Jingxing County, Shijiazhuang, China",
            "latitude": 37.840663,
            "longitude": 114.134256,
            "state": null,
            "country": "China",
            "region": "Asia"
        },
        {
            "name": "Chang Tang Nature Reserve",
            "address": "Nyima County, Nagqu, Tibet, China",
            "latitude": 31.686515,
            "longitude": 87.284966,
            "state": "Tibet",
            "country": "China",
            "region": "Asia"
        },
        {
            "name": "Chengde Mountain Resort",
            "address": "Lizhengmen St, Shuangqiao Qu, Chengde Shi, Hebei Sheng, China",
            "latitude": 40.9889027,
            "longitude": 117.9441515,
            "state": "Hebei Sheng",
            "country": "China",
            "region": "Asia"
        },
        {
            "name": "Dian Lake",
            "address": "Dian Lake, Kunming, China",
            "latitude": 24.8535081,
            "longitude": 102.7364962,
            "state": null,
            "country": "China",
            "region": "Asia"
        },
        {
            "name": "Dujiangyan",
            "address": "Dujiangyan City, Chengdu, Sichuan, China",
            "latitude": 30.988434,
            "longitude": 103.646912,
            "state": "Sichuan",
            "country": "China",
            "region": "Asia"
        },
        {
            "name": "Dunhuang Yardang National Geopark",
            "address": "Dunhuang, Jiuquan, Gansu, China",
            "latitude": 40.14213,
            "longitude": 94.661881,
            "state": "Gansu",
            "country": "China",
            "region": "Asia"
        },
        {
            "name": "Eling Park",
            "address": "181 Eling Main St, Yuzhong District, Chongqing, China, 400014",
            "latitude": 29.5484641,
            "longitude": 106.5265388,
            "state": "Chongqing",
            "country": "China",
            "region": "Asia"
        },
        {
            "name": "Foping National Nature Reserve",
            "address": "Foping National Nature Reserve, China",
            "latitude": 33.658000,
            "longitude": 107.807000,
            "state": "Shaanxi Province",
            "country": "China",
            "region": "Asia"
        },
        {
            "name": "Fuxian Lake",
            "address": "Fuxian Lake, Yuxi, China",
            "latitude": 24.5616646,
            "longitude": 102.8744945,
            "state": null,
            "country": "China",
            "region": "Asia"
        },
        {
            "name": "Geleshan National Forest Park",
            "address": "Geleshan National Forest Park, Shapingba Qu, Chongqing Shi, China",
            "latitude": 29.567694,
            "longitude": 106.427781,
            "state": "Chongqing Shi",
            "country": "China",
            "region": "Asia"
        },
        {
            "name": "Haikou Volcanic Cluster Global Geopark",
            "address": "Haikou Volcanic Cluster Global Geopark, 142县道 Xiuying Qu, Haikou Shi, Hainan Sheng, China",
            "latitude": 19.9282065,
            "longitude": 110.2219173,
            "state": "Hainan Sheng",
            "country": "China",
            "region": "Asia"
        },
        {
            "name": "Mount Heng (Hunan)",
            "address": "Zhurong Feng, Nanyue District, Hengyang, China",
            "latitude": 27.2930556,
            "longitude": 112.6911111,
            "state": null,
            "country": "China",
            "region": "Asia"
        },
        {
            "name": "Heshigten Global Geopark",
            "address": "Hexigten Global Geopark, 303国道 Keshiketeng Qi, Chifeng Shi, Neimenggu Zizhiqu, China",
            "latitude": 43.544373,
            "longitude": 117.947667,
            "state": "Neimenggu Zizhiqu",
            "country": "China",
            "region": "Asia"
        },
        {
            "name": "Hongchiba National Forest Park",
            "address": "China, Chongqing Shi, Wuxi Xian, 白岩路1号 Hongchiba National Forest Park",
            "latitude": 31.512133,
            "longitude": 109.099895,
            "state": "Chongqing Shi",
            "country": "China",
            "region": "Asia"
        },
        {
            "name": "Mount Hua",
            "address": "Mount Hua, Huayin, Weinan, China",
            "latitude": 34.477861,
            "longitude": 110.084789,
            "state": null,
            "country": "China",
            "region": "Asia"
        },
        {
            "name": "Huangguoshu Waterfall",
            "address": "Zhenning Buyei and Miao Autonomous County, Anshun, Guizhou, China",
            "latitude": 25.988779,
            "longitude": 105.6696598,
            "state": "Guizhou",
            "country": "China",
            "region": "Asia"
        },
        {
            "name": "Huanglong Scenic and Historic Interest Area",
            "address": "Huanglong, Pingsong Rd, Songpan Xian, Aba Zangzuqiangzuzizhizhou, Sichuan Sheng, China",
            "latitude": 32.748741,
            "longitude": 103.82319,
            "state": "Sichuan Sheng",
            "country": "China",
            "region": "Asia"
        },
        {
            "name": "Jade Dragon Snow Mountain",
            "address": "Jade Dragon Snow Mountain, Yulong Naxi Autonomous County, Lijiang, China",
            "latitude": 27.0983333,
            "longitude": 100.175,
            "state": null,
            "country": "China",
            "region": "Asia"
        },
        {
            "name": "Jinggang Mountains",
            "address": "Jinggang Mountain, Jinggangshan City, Ji'an, China",
            "latitude": 26.513872,
            "longitude": 114.148583,
            "state": null,
            "country": "China",
            "region": "Asia"
        },
        {
            "name": "Jiuzhaigou",
            "address": "Jiuzhai Valley National Park, Jiuzhaigou Xian, Aba Zangzuqiangzuzizhizhou, Sichuan Sheng, China",
            "latitude": 33.26004210000001,
            "longitude": 103.9185994,
            "state": "Sichuan Sheng",
            "country": "China",
            "region": "Asia"
        },
        {
            "name": "Longmen Grottoes",
            "address": "13 Long Men Zhong Jie, Luolong Qu, Luoyang Shi, Henan Sheng, China",
            "latitude": 34.5594987,
            "longitude": 112.4678779,
            "state": "Henan Sheng",
            "country": "China",
            "region": "Asia"
        },
        {
            "name": "Longshan National Forest Park",
            "address": "Prince William Forest Park, 18170 Park Entrance Rd, Triangle, VA 22172, USA",
            "latitude": 38.5886134,
            "longitude": -77.37695780000001,
            "state": "Virginia",
            "country": "United States",
            "region": "Asia"
        },
        {
            "name": "Mount Luofu",
            "address": "Mount Luofu, Boluo County, Huizhou, China",
            "latitude": 23.292238,
            "longitude": 114.019065,
            "state": null,
            "country": "China",
            "region": "Asia"
        },
        {
            "name": "Mount Lu",
            "address": "Mount Lu, Lianxi District, Jiujiang, China",
            "latitude": 29.559367,
            "longitude": 115.99335,
            "state": null,
            "country": "China",
            "region": "Asia"
        },
        {
            "name": "Lushan Quaternary Glaciation National Geopark",
            "address": "Lushan Quaternary Glaciation National Geopark, Lushan Shi, Jiujiang Shi, Jiangxi Sheng, China",
            "latitude": 29.554049,
            "longitude": 115.983424,
            "state": "Jiangxi Sheng",
            "country": "China",
            "region": "Asia"
        },
        {
            "name": "Mount Emei",
            "address": "Mount Emei, Emeishan City, Leshan, China",
            "latitude": 29.51600699999999,
            "longitude": 103.334737,
            "state": null,
            "country": "China",
            "region": "Asia"
        },
        {
            "name": "Mount Heng (Shanxi)",
            "address": "Mount Heng, Hunyuan County, Datong, China",
            "latitude": 39.672791,
            "longitude": 113.732809,
            "state": null,
            "country": "China",
            "region": "Asia"
        },
        {
            "name": "Mount Jiuhua",
            "address": "Jiuhua Shan, Qingyang County, Chizhou, China",
            "latitude": 30.4333333,
            "longitude": 117.8333333,
            "state": null,
            "country": "China",
            "region": "Asia"
        },
        {
            "name": "Mount Lao",
            "address": "Mount Lao, Laoshan District, Qingdao, China",
            "latitude": 36.182869,
            "longitude": 120.631733,
            "state": null,
            "country": "China",
            "region": "Asia"
        },
        {
            "name": "Mount Li",
            "address": "Mount Li, Lintong District, Xi'an, China",
            "latitude": 34.33264200000001,
            "longitude": 109.281432,
            "state": null,
            "country": "China",
            "region": "Asia"
        },
        {
            "name": "Mount Mogan",
            "address": "Mogan Shan, Deqing, Huzhou, China",
            "latitude": 30.6297222,
            "longitude": 119.8255556,
            "state": null,
            "country": "China",
            "region": "Asia"
        },
        {
            "name": "Mount Qingyuan",
            "address": "Mount Qingyuan, Fengze District, Quanzhou, China",
            "latitude": 24.954023,
            "longitude": 118.607567,
            "state": null,
            "country": "China",
            "region": "Asia"
        },
        {
            "name": "Mount Wutai",
            "address": "205 Sheng Dao, Wutai Xian, Xinzhou Shi, Shanxi Sheng, China",
            "latitude": 39.007616,
            "longitude": 113.596271,
            "state": "Shanxi Sheng",
            "country": "China",
            "region": "Asia"
        },
        {
            "name": "Pearl Shoal Waterfall",
            "address": "Jiuzhaigou County, Ngawa Tibetan and Qiang Autonomous Prefecture, Sichuan, China",
            "latitude": 33.165555,
            "longitude": 103.8888617,
            "state": "Sichuan",
            "country": "China",
            "region": "Asia"
        },
        {
            "name": "Potatso National Park",
            "address": "China, Yunnan Sheng, Diqing Zangzuzizhizhou, Xianggelila Shi, Jiantang, Hongpocun, 双桥东环线 Potatso National Park",
            "latitude": 27.8006835,
            "longitude": 99.9071603,
            "state": "Yunnan Sheng",
            "country": "China",
            "region": "Asia"
        },
        {
            "name": "Mount Putuo",
            "address": "Mount Putuo, Putuo District, Zhoushan, Zhoushan, China",
            "latitude": 29.987646,
            "longitude": 122.384133,
            "state": null,
            "country": "China",
            "region": "Asia"
        },
        {
            "name": "Qianjiangyuan National Forest Park",
            "address": "China, Zhejiang Sheng, Quzhou Shi, Kaihua Xian, 205国道 Qianjiangyuan National Forest Park",
            "latitude": 29.4027323,
            "longitude": 118.3519375,
            "state": "Zhejiang Sheng",
            "country": "China",
            "region": "Asia"
        },
        {
            "name": "Qianshan National Park",
            "address": "Qianshan National Park, Tiedong Qu, Anshan Shi, Liaoning Sheng, China",
            "latitude": 41.031458,
            "longitude": 123.138067,
            "state": "Liaoning Sheng",
            "country": "China",
            "region": "Asia"
        },
        {
            "name": "Mount Qingcheng",
            "address": "Qingcheng Shan, Dujiangyan City, Chengdu, China",
            "latitude": 30.9666667,
            "longitude": 103.5166667,
            "state": null,
            "country": "China",
            "region": "Asia"
        },
        {
            "name": "Qingdao Laoshan National Park",
            "address": "Lao Shan Guo Jia Sen Lin Gong Yuan, Qingdao Shi, China",
            "latitude": 36.1834724,
            "longitude": 120.6084832,
            "state": null,
            "country": "China",
            "region": "Asia"
        },
        {
            "name": "Qinghai Lake",
            "address": "Qinghai Lake, China",
            "latitude": 36.75990290000001,
            "longitude": 100.3497895,
            "state": null,
            "country": "China",
            "region": "Asia"
        },
        {
            "name": "Mount Qiyun",
            "address": "China, Anhui Sheng, Huangshan Shi, Xiuning Xian, 齐云山镇",
            "latitude": 29.814802,
            "longitude": 118.044932,
            "state": "Anhui Sheng",
            "country": "China",
            "region": "Asia"
        },
        {
            "name": "Qomolangma National Park",
            "address": "Yellowstone National Park, United States",
            "latitude": 44.427963,
            "longitude": -110.588455,
            "state": null,
            "country": "United States",
            "region": "Asia"
        },
        {
            "name": "Mount Sanqing",
            "address": "Mount Sanqing, Yushan County, Shangrao, China",
            "latitude": 28.910268,
            "longitude": 118.067682,
            "state": null,
            "country": "China",
            "region": "Asia"
        },
        {
            "name": "Sanshan Islands, Wuxi",
            "address": "Sanshan Mountain, Wuzhong District, Suzhou, China",
            "latitude": 31.029198,
            "longitude": 120.301734,
            "state": null,
            "country": "China",
            "region": "Asia"
        },
        {
            "name": "Slender West Lake",
            "address": "Slender West Lake, Yangzhou, China",
            "latitude": 32.4106198,
            "longitude": 119.4181137,
            "state": null,
            "country": "China",
            "region": "Asia"
        },
        {
            "name": "Mount Song",
            "address": "Mount Song, Dengfeng, Zhengzhou, China",
            "latitude": 34.519664,
            "longitude": 113.004052,
            "state": null,
            "country": "China",
            "region": "Asia"
        },
        {
            "name": "Lake Tai",
            "address": "Lake Tai, China",
            "latitude": 31.2579515,
            "longitude": 120.2051096,
            "state": null,
            "country": "China",
            "region": "Asia"
        },
        {
            "name": "Mount Tai",
            "address": "1360 Sumac Ave #0806, Boulder, CO 80304, USA",
            "latitude": 40.0504191,
            "longitude": -105.2802473,
            "state": "Colorado",
            "country": "United States",
            "region": "Asia"
        },
        {
            "name": "Taishan National Park",
            "address": "United States",
            "latitude": 37.09024,
            "longitude": -95.712891,
            "state": null,
            "country": "United States",
            "region": "Asia"
        },
        {
            "name": "Three Parallel Rivers",
            "address": "Gongshan Derung and Nu Autonomous County, Nujiang Lisu Autonomous Prefecture, Yunnan, China",
            "latitude": 27.8954753,
            "longitude": 98.4060298,
            "state": "Yunnan",
            "country": "China",
            "region": "Asia"
        },
        {
            "name": "Tiantai Mountain",
            "address": "Chicheng Rd, Tiantai Xian, Taizhou Shi, Zhejiang Sheng, China",
            "latitude": 29.1499973,
            "longitude": 121.0426762,
            "state": "Zhejiang Sheng",
            "country": "China",
            "region": "Asia"
        },
        {
            "name": "Mount Tianzhu",
            "address": "Tianzhu Shan, Qianshan, Anhui, Anqing, China",
            "latitude": 30.75,
            "longitude": 116.45,
            "state": null,
            "country": "China",
            "region": "Asia"
        },
        {
            "name": "Wudang Mountains",
            "address": "Wudang Mountains, Danjiangkou, Shiyan, China",
            "latitude": 32.398531,
            "longitude": 111.01028,
            "state": null,
            "country": "China",
            "region": "Asia"
        },
        {
            "name": "Wulingyuan",
            "address": "Wulingyuan District, Zhangjiajie, Hunan, China",
            "latitude": 29.34573,
            "longitude": 110.550433,
            "state": "Hunan",
            "country": "China",
            "region": "Asia"
        },
        {
            "name": "Wuyi Mountains",
            "address": "Wuyi Shanmai, Yanshan County, Jiangxi, Shangrao, China",
            "latitude": 27.811379,
            "longitude": 117.724673,
            "state": null,
            "country": "China",
            "region": "Asia"
        },
        {
            "name": "Wuyishan National Scenic Area",
            "address": "G1514 Ningshang Expressway Entrance, Wuyishan Shi, Nanping Shi, Fujian Sheng, China",
            "latitude": 27.797327,
            "longitude": 117.975661,
            "state": "Fujian Sheng",
            "country": "China",
            "region": "Asia"
        },
        {
            "name": "Xianju National Park",
            "address": "China, Zhejiang Sheng, Taizhou Shi, Xianju Xian, 仙居国家公园",
            "latitude": 28.846966,
            "longitude": 120.728801,
            "state": "Zhejiang Sheng",
            "country": "China",
            "region": "Asia"
        },
        {
            "name": "Xingcheng Haibin National Park",
            "address": "Taroko National Park, No. 291號富世 Xiulin Township, Hualien County, Taiwan 972",
            "latitude": 24.1938752,
            "longitude": 121.4907536,
            "state": null,
            "country": "Taiwan",
            "region": "Asia"
        },
        {
            "name": "Xixi National Wetland Park",
            "address": "Xixi National Wetland Park, 518 Tianmushan Rd, Xihu Qu, Hangzhou Shi, Zhejiang Sheng, China",
            "latitude": 30.268056,
            "longitude": 120.06629,
            "state": "Zhejiang Sheng",
            "country": "China",
            "region": "Asia"
        },
        {
            "name": "Yesanpo National Park",
            "address": "Yesanpo National Park, Laishui Xian, Baoding Shi, Hebei Sheng, China",
            "latitude": 39.670296,
            "longitude": 115.385332,
            "state": "Hebei Sheng",
            "country": "China",
            "region": "Asia"
        },
        {
            "name": "Dalian Yinshitan Forest National Park",
            "address": "Petrified Forest National Park, Arizona, USA",
            "latitude": 35.0036935,
            "longitude": -109.7889229,
            "state": "Arizona",
            "country": "United States",
            "region": "Asia"
        },
        {
            "name": "Yuelu Mountain",
            "address": "Yuelu Mountain, Yuelu District, Changsha, China",
            "latitude": 28.187544,
            "longitude": 112.936758,
            "state": null,
            "country": "China",
            "region": "Asia"
        },
        {
            "name": "Yun Mountain",
            "address": "Yun Ling, Shangri-La City, Diqing Tibetan Autonomous Prefecture, China",
            "latitude": 27.6666667,
            "longitude": 99.5,
            "state": null,
            "country": "China",
            "region": "Asia"
        },
        {
            "name": "Yuntai Mountain (Henan)",
            "address": "Xiuwu County, Jiaozuo, China",
            "latitude": 35.419666,
            "longitude": 113.378227,
            "state": null,
            "country": "China",
            "region": "Asia"
        },
        {
            "name": "Zhangjiajie National Forest Park",
            "address": "Wulingyuan District, Zhangjiajie, Hunan, China",
            "latitude": 29.315305,
            "longitude": 110.434767,
            "state": "Hunan",
            "country": "China",
            "region": "Asia"
        },
        {
            "name": "Zhujiajian Island",
            "address": "Zhujiajian Island, Putuo District, Zhoushan, Zhoushan, China",
            "latitude": 29.936804,
            "longitude": 122.363745,
            "state": null,
            "country": "China",
            "region": "Asia"
        },
        {
            "name": "Jaco Island",
            "address": "Jaco Island, Timor-Leste",
            "latitude": -8.4306968,
            "longitude": 127.3238962,
            "state": "Lautem",
            "country": "Timor-Leste",
            "region": "Asia"
        },
        {
            "name": "Nino Konis Santana National Park",
            "address": "Nino Konis Santana National Park, Tutuala, Lautem District, Timor-Leste",
            "latitude": -8.456072299999999,
            "longitude": 127.1756744,
            "state": "Lautem",
            "country": "Timor-Leste",
            "region": "Asia"
        },
        {
            "name": "Ajameti Managed Reserve",
            "address": "Ajameti Managed Reserve, Georgia",
            "latitude": 42.1121844,
            "longitude": 42.7538803,
            "state": "Imereti",
            "country": "Georgia",
            "region": "Asia"
        },
        {
            "name": "Algeti National Park",
            "address": "Algeti's National Park, 103 Avlabari St, Tbilisi 0103, Georgia",
            "latitude": 41.7232455,
            "longitude": 44.3082633,
            "state": null,
            "country": "Georgia",
            "region": "Asia"
        },
        {
            "name": "Asa Managed Reserve",
            "address": null,
            "latitude": null,
            "longitude": null,
            "state": null,
            "country": null,
            "region": "Asia"
        },
        {
            "name": "Babaneuri Strict Nature Reserve",
            "address": "Babaneuri Nature Reserve, Tianeti-Akhmeta-Kvareli-Ninigori, Maghraani, Georgia",
            "latitude": 42.0920738,
            "longitude": 45.3869372,
            "state": "Kakheti",
            "country": "Georgia",
            "region": "Asia"
        },
        {
            "name": "Batsara Strict Nature Reserve",
            "address": "Batsara Nature Reserve, Georgia",
            "latitude": 42.2446977,
            "longitude": 45.2515655,
            "state": "Kakheti",
            "country": "Georgia",
            "region": "Asia"
        },
        {
            "name": "Bichvinta-Miuseri Strict Nature Reserve",
            "address": "Bichvinta-Miusera Nature Reserve, Miusera Road",
            "latitude": 43.170804,
            "longitude": 40.4329044,
            "state": null,
            "country": null,
            "region": "Asia"
        },
        {
            "name": "Borjomi Strict Nature Reserve",
            "address": "Borjomi & Kharagauli National Park, Kutaisi-Baghdati-Abastumani-Benara, Georgia",
            "latitude": 41.7441055,
            "longitude": 42.8352622,
            "state": "Samtskhe-Javakheti",
            "country": "Georgia",
            "region": "Asia"
        },
        {
            "name": "Borjomi-Kharagauli National Park",
            "address": "Borjomi & Kharagauli National Park, Georgia",
            "latitude": 41.8602468,
            "longitude": 43.2240541,
            "state": "Samtskhe-Javakheti",
            "country": "Georgia",
            "region": "Asia"
        },
        {
            "name": "Bugdasheni Managed Reserve",
            "address": null,
            "latitude": null,
            "longitude": null,
            "state": null,
            "country": null,
            "region": "Asia"
        },
        {
            "name": "Chachuna Managed Reserve",
            "address": "Chachuna Managed Reserve, Georgia",
            "latitude": 41.29687089999999,
            "longitude": 45.8995985,
            "state": "Kakheti",
            "country": "Georgia",
            "region": "Asia"
        },
        {
            "name": "Gardabani Managed Reserve",
            "address": "Gardabani Wildlife Refuge, Aghtaklia, Georgia",
            "latitude": 41.4532125,
            "longitude": 45.02685570000001,
            "state": "Kvemo Kartli",
            "country": "Georgia",
            "region": "Asia"
        },
        {
            "name": "Ilto Managed Reserve",
            "address": "Ilto Managed Reserve, Georgia",
            "latitude": 42.27110529999999,
            "longitude": 45.16877909999999,
            "state": "Kakheti",
            "country": "Georgia",
            "region": "Asia"
        },
        {
            "name": "Iori Managed Reserve",
            "address": "12 Aghmashebeli St, Sagaredzho, Georgia",
            "latitude": 41.736778,
            "longitude": 45.32639,
            "state": "Kakheti",
            "country": "Georgia",
            "region": "Asia"
        },
        {
            "name": "Javakheti National Park",
            "address": "Javakheti National Park, Georgia",
            "latitude": 41.2304727,
            "longitude": 43.37552549999999,
            "state": "Samtskhe-Javakheti",
            "country": "Georgia",
            "region": "Asia"
        },
        {
            "name": "Kartsakhi Managed Reserve",
            "address": null,
            "latitude": null,
            "longitude": null,
            "state": null,
            "country": null,
            "region": "Asia"
        },
        {
            "name": "Katsoburi Managed Reserve",
            "address": "Katsoburi Managed Reserve, Abasha-Gaghma Kodori-Guleiskiri-Japana, Georgia",
            "latitude": 42.1699676,
            "longitude": 42.0633196,
            "state": "Samegrelo-Zemo Svaneti",
            "country": "Georgia",
            "region": "Asia"
        },
        {
            "name": "Kazbegi National Park",
            "address": "Kazbegi's National Park, Georgia",
            "latitude": 42.7380711,
            "longitude": 44.6286844,
            "state": "Mtskheta-Mtianeti",
            "country": "Georgia",
            "region": "Asia"
        },
        {
            "name": "Khanchali Managed Reserve",
            "address": null,
            "latitude": null,
            "longitude": null,
            "state": null,
            "country": null,
            "region": "Asia"
        },
        {
            "name": "Kintrishi National Park",
            "address": "Kintrishi Nature Reserve, Georgia",
            "latitude": 41.7498009,
            "longitude": 42.0372451,
            "state": "Adjara",
            "country": "Georgia",
            "region": "Asia"
        },
        {
            "name": "Kintrishi Strict Nature Reserve",
            "address": "Kintrishi Nature Reserve, Georgia",
            "latitude": 41.7498009,
            "longitude": 42.0372451,
            "state": "Adjara",
            "country": "Georgia",
            "region": "Asia"
        },
        {
            "name": "Kobuleti Managed Reserve",
            "address": "Kobuleti Managed Reserve Entrance, Kobuleti, Georgia",
            "latitude": 41.8634536,
            "longitude": 41.7839388,
            "state": "Adjara",
            "country": "Georgia",
            "region": "Asia"
        },
        {
            "name": "Kobuleti Strict Nature Reserve",
            "address": "Kobuleti Nature Reserve, Georgia",
            "latitude": 41.8625331,
            "longitude": 41.8020713,
            "state": "Adjara",
            "country": "Georgia",
            "region": "Asia"
        },
        {
            "name": "Kolkheti National Park",
            "address": "Kolkheti's National Park, Guria St., 222, Poti, Region, Georgia",
            "latitude": 42.110577,
            "longitude": 41.6965641,
            "state": "სამეგრელო-ზემო სვანეთის მხარე",
            "country": "Georgia",
            "region": "Asia"
        },
        {
            "name": "Korugi Managed Reserve",
            "address": "12 Aghmashebeli St, Sagaredzho, Georgia",
            "latitude": 41.736778,
            "longitude": 45.32639,
            "state": "Kakheti",
            "country": "Georgia",
            "region": "Asia"
        },
        {
            "name": "Ktsia-Tabatskuri Managed Reserve",
            "address": "Ktsia-Tabatskuri Managed Reserve, Tskhratskaro pass - Tabatskuri, Georgia",
            "latitude": 41.6819396,
            "longitude": 43.5746821,
            "state": "Samtskhe-Javakheti",
            "country": "Georgia",
            "region": "Asia"
        },
        {
            "name": "Lagodekhi Protected Areas",
            "address": "Lagodekhi Nature Reserve, Georgia",
            "latitude": 41.8984386,
            "longitude": 46.3455588,
            "state": "Kakheti",
            "country": "Georgia",
            "region": "Asia"
        },
        {
            "name": "Liakhvi Strict Nature Reserve",
            "address": "Liakhvi Nature Reserve",
            "latitude": 42.3781373,
            "longitude": 44.253983,
            "state": null,
            "country": null,
            "region": "Asia"
        },
        {
            "name": "Machakhela National Park",
            "address": "Machakhela Planned National Park, Georgia",
            "latitude": 41.4640701,
            "longitude": 41.8416863,
            "state": "Adjara",
            "country": "Georgia",
            "region": "Asia"
        },
        {
            "name": "Madatapa Managed Reserve",
            "address": null,
            "latitude": null,
            "longitude": null,
            "state": null,
            "country": null,
            "region": "Asia"
        },
        {
            "name": "Mariamjvari Strict Nature Reserve",
            "address": "Värriö Strict Nature Reserve, Ainijärventie 114, Ruuvaoja, Finland",
            "latitude": 67.7410483,
            "longitude": 29.6377404,
            "state": null,
            "country": "Finland",
            "region": "Asia"
        },
        {
            "name": "Mtirala National Park",
            "address": "Mtirala National Park, Georgia",
            "latitude": 41.6616721,
            "longitude": 41.8779124,
            "state": "Adjara",
            "country": "Georgia",
            "region": "Asia"
        },
        {
            "name": "Nedzvi Managed Reserve",
            "address": "Nedzvi Managed Reserve, Georgia",
            "latitude": 41.8805127,
            "longitude": 43.513165,
            "state": "Samtskhe-Javakheti",
            "country": "Georgia",
            "region": "Asia"
        },
        {
            "name": "Pshav-Khevsureti National Park",
            "address": "Pshav-Khevsureti's National Park, Shatili, Georgia",
            "latitude": 42.6588757,
            "longitude": 45.1605472,
            "state": "Mtskheta-Mtianeti",
            "country": "Georgia",
            "region": "Asia"
        },
        {
            "name": "Pskhu-Gumista Strict Nature Reserve",
            "address": "Pskhu-Gumista Nature Reserve, 68 Tbilisi - Senaki - Leselidze Hwy, Kutaisi 4600",
            "latitude": 43.3454459,
            "longitude": 41.0084138,
            "state": null,
            "country": null,
            "region": "Asia"
        },
        {
            "name": "Ritsa Strict Nature Reserve",
            "address": "Ritsa National Reserve, Bzipi-Ritsa Lake-Avadkhara",
            "latitude": 43.4845838,
            "longitude": 40.6360179,
            "state": null,
            "country": null,
            "region": "Asia"
        },
        {
            "name": "Sataplia Managed Reserve",
            "address": "Sataplia Managed Reserve, M111, Georgia",
            "latitude": 42.3114686,
            "longitude": 42.6752148,
            "state": "Imereti",
            "country": "Georgia",
            "region": "Asia"
        },
        {
            "name": "Sataplia Strict Nature Reserve",
            "address": "Sataplia Nature Reserve, M111, Georgia",
            "latitude": 42.3156236,
            "longitude": 42.6733191,
            "state": "Imereti",
            "country": "Georgia",
            "region": "Asia"
        },
        {
            "name": "Sulda Managed Reserve",
            "address": "Sulda Managed Reserve, Bozali, Georgia",
            "latitude": 41.2802033,
            "longitude": 43.3415919,
            "state": "Samtskhe-Javakheti",
            "country": "Georgia",
            "region": "Asia"
        },
        {
            "name": "Tbilisi National Park",
            "address": "National Park of Tbilisi, Tbilisi, Georgia",
            "latitude": 41.86590289999999,
            "longitude": 44.9566253,
            "state": null,
            "country": "Georgia",
            "region": "Asia"
        },
        {
            "name": "Tetrobi Managed Reserve",
            "address": null,
            "latitude": null,
            "longitude": null,
            "state": null,
            "country": null,
            "region": "Asia"
        },
        {
            "name": "Tusheti National Park",
            "address": "Tusheti Protected Landscape, Georgia",
            "latitude": 42.4513524,
            "longitude": 45.43957,
            "state": "Kakheti",
            "country": "Georgia",
            "region": "Asia"
        },
        {
            "name": "Tusheti Protected Landscape",
            "address": "Pshaveli-Abano-Omalo, Omalo, Georgia",
            "latitude": 42.3639702,
            "longitude": 45.62598,
            "state": "Kakheti",
            "country": "Georgia",
            "region": "Asia"
        },
        {
            "name": "Tusheti Strict Nature Reserve",
            "address": "Tusheti Nature Reserve, Pshaveli-Abano-Omalo, Georgia",
            "latitude": 42.3791875,
            "longitude": 45.6143838,
            "state": "Kakheti",
            "country": "Georgia",
            "region": "Asia"
        },
        {
            "name": "Vashlovani National Park",
            "address": "Vashlovani Nature Reserve, Georgia",
            "latitude": 41.1908378,
            "longitude": 46.4735376,
            "state": "Kakheti",
            "country": "Georgia",
            "region": "Asia"
        },
        {
            "name": "Vashlovani Strict Nature Reserve",
            "address": "Dedoplis Tskaro, Georgia",
            "latitude": 41.4626125,
            "longitude": 46.1035788,
            "state": "Kakheti",
            "country": "Georgia",
            "region": "Asia"
        },
        {
            "name": "Deosai National Park",
            "address": "Deosai National Park, Deosai Park Rd, Astore, Gilgit-Baltistan",
            "latitude": 34.9705077,
            "longitude": 75.4718236,
            "state": null,
            "country": null,
            "region": "Asia"
        },
        {
            "name": "Komodo National Park‎ (8 P)",
            "address": "Komodo National Park, Nusa Tenggara Tim., Indonesia",
            "latitude": -8.527716,
            "longitude": 119.4833198,
            "state": "Nusa Tenggara Timur",
            "country": "Indonesia",
            "region": "Asia"
        },
        {
            "name": "Aketajawe-Lolobata National Park",
            "address": "Taman Nasional Aketajawe Lolobata, Akeguraci, Oba Tengah, Kota Tidore Kepulauan, Maluku Utara, Indonesia",
            "latitude": 0.4929154999999999,
            "longitude": 127.7453813,
            "state": "Maluku Utara",
            "country": "Indonesia",
            "region": "Asia"
        },
        {
            "name": "Alas Purwo National Park",
            "address": "Kantor Balai Taman Nasional Alas Purwo, Jl. Brawijaya No.20, Kebalenan, Kec. Banyuwangi, Kabupaten Banyuwangi, Jawa Timur 68417, Indonesia",
            "latitude": -8.2339402,
            "longitude": 114.3517053,
            "state": "Jawa Timur",
            "country": "Indonesia",
            "region": "Asia"
        },
        {
            "name": "Baluran National Park",
            "address": "Baluran National Park, Area Hutan/Kebun, Sumberwaru, Kec. Banyuputih, Kabupatén Situbondo, Jawa Timur, Indonesia",
            "latitude": -7.8311884,
            "longitude": 114.3875505,
            "state": "Jawa Timur",
            "country": "Indonesia",
            "region": "Asia"
        },
        {
            "name": "Bantimurung–Bulusaraung National Park",
            "address": "Balai Taman Nasional Bantimurung Bulusaraung, Sulawesi Selatan, Indonesia",
            "latitude": -4.8011838,
            "longitude": 119.8234977,
            "state": "Sulawesi Selatan",
            "country": "Indonesia",
            "region": "Asia"
        },
        {
            "name": "Batang Gadis National Park",
            "address": "Batang Gadis National Park, Jl. Willem Iskandar No.Kel, Pidoli Dolok, Panyabungan, Kabupaten Mandailing Natal, Sumatera Utara 22915, Indonesia",
            "latitude": 0.8308970999999999,
            "longitude": 99.5645957,
            "state": "Sumatera Utara",
            "country": "Indonesia",
            "region": "Asia"
        },
        {
            "name": "Berbak National Park",
            "address": "Taman Nasional Berbak, Kab. Tanjung Jabung, Tanjung Jabung, Kota Jambi, Jambi, Indonesia",
            "latitude": -1.2868651,
            "longitude": 104.2395942,
            "state": "Jambi",
            "country": "Indonesia",
            "region": "Asia"
        },
        {
            "name": "Betung Kerihun National Park",
            "address": "Betung Kerihun National Park, Jl. Piere Tendean, Sibau Hulu, Kec. Putussibau Utara, Kabupaten Kapuas Hulu, Kalimantan Barat 78716, Indonesia",
            "latitude": 1.2015147,
            "longitude": 113.1885775,
            "state": "Kalimantan Barat",
            "country": "Indonesia",
            "region": "Asia"
        },
        {
            "name": "Bogani Nani Wartabone National Park",
            "address": "Taman Nasional Bogani Nani Wartabone, Indonesia",
            "latitude": 0.5634482,
            "longitude": 123.7070619,
            "state": null,
            "country": "Indonesia",
            "region": "Asia"
        },
        {
            "name": "Bromo Tengger Semeru National Park",
            "address": "Semeru, Ngampo, Pasrujambe, Lumajang Regency, East Java, Indonesia",
            "latitude": -8.1077172,
            "longitude": 112.9224075,
            "state": "East Java",
            "country": "Indonesia",
            "region": "Asia"
        },
        {
            "name": "Bukit Baka Bukit Raya National Park",
            "address": "Taman Nasional Bukit Baka Bukit Raya, Rantau Malam, Kec. Serawai, Kabupaten Sintang, Kalimantan Barat 78683, Indonesia",
            "latitude": -0.3277921,
            "longitude": 112.4380522,
            "state": "Kalimantan Barat",
            "country": "Indonesia",
            "region": "Asia"
        },
        {
            "name": "Bukit Barisan Selatan National Park",
            "address": "Taman Nasional Bukit Barisan Selatan, Lampung, Indonesia",
            "latitude": -5.4484732,
            "longitude": 104.3515884,
            "state": "Lampung",
            "country": "Indonesia",
            "region": "Asia"
        },
        {
            "name": "Bukit Duabelas National Park",
            "address": "Taman Nasional Bukit Dua Belas, Batu Sawar, Maro Sebo Ulu, Kabupaten Batang Hari, Jambi 36655, Indonesia",
            "latitude": -1.878566,
            "longitude": 102.6972746,
            "state": "Jambi",
            "country": "Indonesia",
            "region": "Asia"
        },
        {
            "name": "Bukit Tigapuluh National Park",
            "address": "Taman Nasional Bukit Tigapuluh, Rantau Langsat, Kec. Batang Gangsal, Kabupaten Indragiri Hulu, Riau 29355, Indonesia",
            "latitude": -0.9225840000000001,
            "longitude": 102.4684642,
            "state": "Riau",
            "country": "Indonesia",
            "region": "Asia"
        },
        {
            "name": "Bunaken National Park",
            "address": "Bunaken, North Sulawesi, Indonesia",
            "latitude": 1.6235162,
            "longitude": 124.7602683,
            "state": "North Sulawesi",
            "country": "Indonesia",
            "region": "Asia"
        },
        {
            "name": "Gandang Dewata National Park",
            "address": "Gandang Dewata National Park, Gandang Dewata, Tabulahan, Mamasa, Sulawesi Barat 91372, Indonesia",
            "latitude": -2.7285562,
            "longitude": 119.2901829,
            "state": "Sulawesi Barat",
            "country": "Indonesia",
            "region": "Asia"
        },
        {
            "name": "Karimunjawa National Park",
            "address": "Karimunjawa National Park, Karimunjawa, Kabupaten Jepara, Jawa Tengah, Indonesia",
            "latitude": -5.848912299999999,
            "longitude": 110.4396206,
            "state": "Jawa Tengah",
            "country": "Indonesia",
            "region": "Asia"
        },
        {
            "name": "Kayan Mentarang National Park",
            "address": "Kayan Mentarang National Park, Kompleks Pemda, Long Bena, Pujungan, Kabupaten Malinau, Kalimantan Utara 77562, Indonesia",
            "latitude": 2.8718169,
            "longitude": 115.3785755,
            "state": "Kalimantan Utara",
            "country": "Indonesia",
            "region": "Asia"
        },
        {
            "name": "Kelimutu National Park",
            "address": "Kelimutu, Woloara, Kelimutu, Ende Regency, East Nusa Tenggara, Indonesia",
            "latitude": -8.7689165,
            "longitude": 121.8221085,
            "state": "East Nusa Tenggara",
            "country": "Indonesia",
            "region": "Asia"
        },
        {
            "name": "Kepulauan Togean National Park",
            "address": "Togean island, Tojo Una-Una Regency, Indonesia",
            "latitude": -0.398157,
            "longitude": 121.9245556,
            "state": null,
            "country": "Indonesia",
            "region": "Asia"
        },
        {
            "name": "Kerinci Seblat National Park",
            "address": "Kerinci Seblat National Park, Lubuk Minturun, Kec. Koto Tangah, Kota Padang, Sumatera Barat 25586, Indonesia",
            "latitude": -0.776287,
            "longitude": 100.4807173,
            "state": "Sumatera Barat",
            "country": "Indonesia",
            "region": "Asia"
        },
        {
            "name": "Komodo National Park",
            "address": "Komodo National Park, Nusa Tenggara Tim., Indonesia",
            "latitude": -8.527716,
            "longitude": 119.4833198,
            "state": "Nusa Tenggara Timur",
            "country": "Indonesia",
            "region": "Asia"
        },
        {
            "name": "Kutai National Park",
            "address": "4700 Keele St, Toronto, ON M3J 1P3, Canada",
            "latitude": 43.7734535,
            "longitude": -79.50186839999999,
            "state": "Ontario",
            "country": "Canada",
            "region": "Asia"
        },
        {
            "name": "Laiwangi Wanggameti National Park",
            "address": "Taman Nasional Laiwangi Wanggameti, Pulau Sumba, Pindu Hurani, Tabundung, Kabupaten Sumba Timur, Nusa Tenggara Tim., Indonesia",
            "latitude": -10.0035511,
            "longitude": 120.0087372,
            "state": "Nusa Tenggara Timur",
            "country": "Indonesia",
            "region": "Asia"
        },
        {
            "name": "Lake Sentarum National Park",
            "address": "Sentarum Lake National Park, Nanga Leboyan, Sentarum, Nanga Leboyan, Danau Sentarum, Kabupaten Kapuas Hulu, Kalimantan Barat 78765, Indonesia",
            "latitude": 0.8838014,
            "longitude": 112.1192623,
            "state": "Kalimantan Barat",
            "country": "Indonesia",
            "region": "Asia"
        },
        {
            "name": "Lore Lindu National Park",
            "address": "Lore Lindu National Park, Sulawesi Tengah, Indonesia",
            "latitude": -1.4749503,
            "longitude": 120.1889421,
            "state": "Sulawesi Tengah",
            "country": "Indonesia",
            "region": "Asia"
        },
        {
            "name": "Manupeu Tanah Daru National Park",
            "address": "Taman Nasional Manupeu Tanah Daru, Taman Nasional Manupeu Tanah Daru, Pulau, Sumba, Kabupaten Sumba Barat, Nusa Tenggara Tim., Indonesia",
            "latitude": -9.5777936,
            "longitude": 119.5020698,
            "state": "Nusa Tenggara Timur",
            "country": "Indonesia",
            "region": "Asia"
        },
        {
            "name": "Manusela National Park",
            "address": "Taman Nasional Manusela, Manusela, Seram Utara, Kabupaten Maluku Tengah, Maluku, Indonesia",
            "latitude": -3.0751277,
            "longitude": 129.6199663,
            "state": "Maluku",
            "country": "Indonesia",
            "region": "Asia"
        },
        {
            "name": "Meru Betiri National Park",
            "address": "Meru Betiri National Park, Andongrejo, Tempurejo, Area Hutan, Andongrejo, Tempurejo, Kabupaten Jember, Jawa Timur 68173, Indonesia",
            "latitude": -8.4601211,
            "longitude": 113.8108805,
            "state": "Jawa Timur",
            "country": "Indonesia",
            "region": "Asia"
        },
        {
            "name": "Mount Ciremai National Park",
            "address": "Mount Cereme, Bantaragung, Sindangwangi, Majalengka Regency, West Java, Indonesia",
            "latitude": -6.8933333,
            "longitude": 108.4066666,
            "state": "West Java",
            "country": "Indonesia",
            "region": "Asia"
        },
        {
            "name": "Mount Gede Pangrango National Park",
            "address": "Taman Nasional Gunung Gede Pangrango, Jl. Kebun Raya Cibodas, Cimacan, Kec. Cipanas, Cianjur, Jawa Barat 43253, Indonesia",
            "latitude": -6.737286000000001,
            "longitude": 107.0053077,
            "state": "Jawa Barat",
            "country": "Indonesia",
            "region": "Asia"
        },
        {
            "name": "Mount Halimun Salak National Park",
            "address": "Mount Halimun, Cisarua, Sukajaya, Bogor, West Java, Indonesia",
            "latitude": -6.6988889,
            "longitude": 106.4402778,
            "state": "West Java",
            "country": "Indonesia",
            "region": "Asia"
        },
        {
            "name": "Mount Leuser National Park",
            "address": "Mount Leuser National Park, Kong Paluh, Kutapanjang, Kabupaten Gayo Lues, Aceh 24653, Indonesia",
            "latitude": 3.7742069,
            "longitude": 97.24371049999999,
            "state": "Aceh",
            "country": "Indonesia",
            "region": "Asia"
        },
        {
            "name": "Mount Merapi",
            "address": "Mount Merapi, Dusun 2, Suroteleng, Selo, Boyolali Regency, Central Java, Indonesia",
            "latitude": -7.5407175,
            "longitude": 110.4457241,
            "state": "Central Java",
            "country": "Indonesia",
            "region": "Asia"
        },
        {
            "name": "Mount Merbabu",
            "address": "Mount Merbabu, Suroteleng, Selo, Boyolali Regency, Central Java, Indonesia",
            "latitude": -7.455000000000001,
            "longitude": 110.44,
            "state": "Central Java",
            "country": "Indonesia",
            "region": "Asia"
        },
        {
            "name": "Mount Palung National Park",
            "address": "Mount Palung National Park, Padu Banjar, Kec. Simpang Hilir, Kabupaten Ketapang, Kalimantan Barat 78857, Indonesia",
            "latitude": -0.8691694000000001,
            "longitude": 109.9733708,
            "state": "Kalimantan Barat",
            "country": "Indonesia",
            "region": "Asia"
        },
        {
            "name": "Mount Rinjani National Park",
            "address": "Gunung Rinjani National Park Office, Jl. Raya Sembalun Lawang, Sembalun Lawang, Sembalun, Kabupaten Lombok Timur, Nusa Tenggara Bar. 83666, Indonesia",
            "latitude": -8.3596687,
            "longitude": 116.5243311,
            "state": "Nusa Tenggara Barat",
            "country": "Indonesia",
            "region": "Asia"
        },
        {
            "name": "Rawa Aopa Watumohai National Park",
            "address": "Taman Nasional Rawa Aopa Watumohai, Kios Anggi, Tatangge, Tinanggea, Kabupaten Konawe Selatan, Sulawesi Tenggara 93885, Indonesia",
            "latitude": -4.4613024,
            "longitude": 122.1263959,
            "state": "Sulawesi Tenggara",
            "country": "Indonesia",
            "region": "Asia"
        },
        {
            "name": "Tesso Nilo National Park",
            "address": "Tesso Nilo National Park, Indragiri Hulu, Segati, Pelalawan, Kabupaten Pelalawan, Riau 68101, Indonesia",
            "latitude": -0.0758334,
            "longitude": 101.6230565,
            "state": "Riau",
            "country": "Indonesia",
            "region": "Asia"
        },
        {
            "name": "Rimba Raya Biodiversity Reserve",
            "address": null,
            "latitude": null,
            "longitude": null,
            "state": null,
            "country": null,
            "region": "Asia"
        },
        {
            "name": "Sabangau National Park",
            "address": "Sebangau National Park, Jalan Mahir Mahar KM. 1.2, Paduran Sabangau, Sebangau Kuala, Paduran Sabangau, Kec. Sebangau Kuala, Palangka Raya, Kalimantan Tengah 74874, Indonesia",
            "latitude": -2.5973765,
            "longitude": 113.6737776,
            "state": "Kalimantan Tengah",
            "country": "Indonesia",
            "region": "Asia"
        },
        {
            "name": "Sembilang National Park",
            "address": "Taman Nasional Sembilang, Tanah Pilih, Kec. Banyuasin II, Kabupaten Banyu Asin, Sumatera Selatan 30971, Indonesia",
            "latitude": -2.0356268,
            "longitude": 104.6592781,
            "state": "Sumatera Selatan",
            "country": "Indonesia",
            "region": "Asia"
        },
        {
            "name": "Siberut National Park",
            "address": "Taman Nasional Pulau Siberut, Bojakan, Siberut Utara, Kabupaten Kepulauan Mentawai, Sumatera Barat 25394, Indonesia",
            "latitude": -1.3174892,
            "longitude": 98.8891625,
            "state": "Sumatera Barat",
            "country": "Indonesia",
            "region": "Asia"
        },
        {
            "name": "Taka Bonerate National Park",
            "address": "Taka Bonerate National Park, Jl. S. Parman No.40, Pulau Tinabo Besar, Takabonerate, Kab. Kepulauan Selayar, Sulawesi Selatan 92812, Indonesia",
            "latitude": -6.5670768,
            "longitude": 121.098985,
            "state": "Sulawesi Selatan",
            "country": "Indonesia",
            "region": "Asia"
        },
        {
            "name": "Tanjung Puting",
            "address": "Taman Nasional Tanjung Puting, Tlk. Pulai, Kec. Kumai, Kabupaten Kotawaringin Barat, Kalimantan Tengah 74181, Indonesia",
            "latitude": -3.0550149,
            "longitude": 111.9184136,
            "state": "Kalimantan Tengah",
            "country": "Indonesia",
            "region": "Asia"
        },
        {
            "name": "Thousand Islands (Indonesia)",
            "address": "Kepulauan Seribu Regency, Jakarta, Indonesia",
            "latitude": -5.7392014,
            "longitude": 106.5996686,
            "state": "Jakarta",
            "country": "Indonesia",
            "region": "Asia"
        },
        {
            "name": "Ujung Kulon National Park",
            "address": "Ujung Kulon National Park, Banten, Indonesia",
            "latitude": -6.7846944,
            "longitude": 105.3751088,
            "state": "Banten",
            "country": "Indonesia",
            "region": "Asia"
        },
        {
            "name": "Wakatobi National Park",
            "address": "Wakatobi National Park, Sulawesi Tenggara, Indonesia",
            "latitude": -5.5634736,
            "longitude": 123.9304254,
            "state": "Sulawesi Tenggara",
            "country": "Indonesia",
            "region": "Asia"
        },
        {
            "name": "Way Kambas National Park",
            "address": "Way Kambas National Park, Kabupaten Lampung Timur, Lampung, Indonesia",
            "latitude": -4.9275758,
            "longitude": 105.7769283,
            "state": "Lampung",
            "country": "Indonesia",
            "region": "Asia"
        },
        {
            "name": "West Bali National Park",
            "address": "West Bali National Park, Bali, Indonesia",
            "latitude": -8.1276114,
            "longitude": 114.4753401,
            "state": "Bali",
            "country": "Indonesia",
            "region": "Asia"
        },
        {
            "name": "Golestan National Park",
            "address": "Golestan National Park, Golestan Province, Iran",
            "latitude": 37.5475271,
            "longitude": 56.382423,
            "state": "Golestan Province",
            "country": "Iran",
            "region": "Asia"
        },
        {
            "name": "Kavir National Park",
            "address": "Kavir National Park, Garmsār, Semnan Province, Iran",
            "latitude": 34.6101512,
            "longitude": 52.4465474,
            "state": "Semnan Province",
            "country": "Iran",
            "region": "Asia"
        },
        {
            "name": "Khar Turan National Park",
            "address": "Khar Turan National Park, Semnan Province, Iran",
            "latitude": 36.7078471,
            "longitude": 55.6689636,
            "state": "Semnan Province",
            "country": "Iran",
            "region": "Asia"
        },
        {
            "name": "Khojir National Park",
            "address": "Khojir, Tehran Province, Iran",
            "latitude": 35.6636637,
            "longitude": 51.7282065,
            "state": "Tehran Province",
            "country": "Iran",
            "region": "Asia"
        },
        {
            "name": "Lar National Park",
            "address": "Lar National Park, Mazandaran Province, Iran",
            "latitude": 35.9851745,
            "longitude": 51.9791849,
            "state": "Mazandaran Province",
            "country": "Iran",
            "region": "Asia"
        },
        {
            "name": "Naybandan Wildlife Sanctuary",
            "address": "Naybandan Wildlife Sanctuary, Tabas, South Khorasan Province, Iran",
            "latitude": 32.5044207,
            "longitude": 57.5002483,
            "state": "South Khorasan Province",
            "country": "Iran",
            "region": "Asia"
        },
        {
            "name": "Sorkheh Hesar National Park",
            "address": "ایران،استان تهران،تهران منطقه۱۳،تهران نو،، Sorkheh Hesar Forest Park, Iran",
            "latitude": 35.7192485,
            "longitude": 51.5530431,
            "state": null,
            "country": "Iran",
            "region": "Asia"
        },
        {
            "name": "Tandooreh National Park",
            "address": "Tandoureh Protected Area, Iran",
            "latitude": 37.5822355,
            "longitude": 58.6687118,
            "state": null,
            "country": "Iran",
            "region": "Asia"
        },
        {
            "name": "Capernaum‎",
            "address": "Capernaum, Israel",
            "latitude": 32.88033,
            "longitude": 35.573307,
            "state": "North District",
            "country": "Israel",
            "region": "Asia"
        },
        {
            "name": "Masada‎",
            "address": "2206 N California Ave, Chicago, IL 60647, USA",
            "latitude": 41.9220272,
            "longitude": -87.69766949999999,
            "state": "Illinois",
            "country": "United States",
            "region": "Asia"
        },
        {
            "name": "Qumran‎",
            "address": "1, kibbutz kalya",
            "latitude": 31.74159229999999,
            "longitude": 35.4633419,
            "state": null,
            "country": null,
            "region": "Asia"
        },
        {
            "name": "Achziv",
            "address": "Achziv National Park, Nahariyya, Israel",
            "latitude": 33.048379,
            "longitude": 35.102177,
            "state": "North District",
            "country": "Israel",
            "region": "Asia"
        },
        {
            "name": "Adullam-France Park",
            "address": "Adullam-France Park, Israel",
            "latitude": 31.654827,
            "longitude": 34.9541599,
            "state": "Jerusalem District",
            "country": "Israel",
            "region": "Asia"
        },
        {
            "name": "Nahal Alexander",
            "address": "Nahal Alexander",
            "latitude": 32.3861105,
            "longitude": 34.8920941,
            "state": "Center District",
            "country": "Israel",
            "region": "Asia"
        },
        {
            "name": "Alexandrium",
            "address": "Gulf of Maine",
            "latitude": 43.1335954,
            "longitude": -68.3266403,
            "state": null,
            "country": null,
            "region": "Asia"
        },
        {
            "name": "Apollonia–Arsuf",
            "address": "Arsuf, Israel",
            "latitude": 32.212841,
            "longitude": 34.815977,
            "state": "Center District",
            "country": "Israel",
            "region": "Asia"
        },
        {
            "name": "Tel Arad",
            "address": "Tel Arad, Arad",
            "latitude": 31.2782985,
            "longitude": 35.1266529,
            "state": "South District",
            "country": "Israel",
            "region": "Asia"
        },
        {
            "name": "Mount Arbel",
            "address": "Mount Arbel, Israel",
            "latitude": 32.8241667,
            "longitude": 35.4986111,
            "state": "North District",
            "country": "Israel",
            "region": "Asia"
        },
        {
            "name": "Ashkelon National Park",
            "address": "Ashkelon National Park, Ashkelon, Israel",
            "latitude": 31.662477,
            "longitude": 34.546367,
            "state": "South District",
            "country": "Israel",
            "region": "Asia"
        },
        {
            "name": "Avdat",
            "address": "Avdat National Park, Israel",
            "latitude": 30.794352,
            "longitude": 34.7733994,
            "state": "South District",
            "country": "Israel",
            "region": "Asia"
        },
        {
            "name": "Bar'am National Park",
            "address": "Baram National Park, Israel",
            "latitude": 33.0438092,
            "longitude": 35.415321,
            "state": "North District",
            "country": "Israel",
            "region": "Asia"
        },
        {
            "name": "Tel Be'er Sheva",
            "address": "Tel Be’er Sheba, Be'er Sheva, Israel",
            "latitude": 31.244835,
            "longitude": 34.840858,
            "state": "South District",
            "country": "Israel",
            "region": "Asia"
        },
        {
            "name": "Beit Guvrin National Park",
            "address": "Beit Guvrin-Maresha National Park, Israel",
            "latitude": 31.601631,
            "longitude": 34.895464,
            "state": "South District",
            "country": "Israel",
            "region": "Asia"
        },
        {
            "name": "Beit She'an",
            "address": "Beit She'an, Israel",
            "latitude": 32.497103,
            "longitude": 35.497336,
            "state": "North District",
            "country": "Israel",
            "region": "Asia"
        },
        {
            "name": "Beit She'arim necropolis",
            "address": "Bet She'arim National Park, Kiryat Tiv'on, Israel",
            "latitude": 32.703757,
            "longitude": 35.129933,
            "state": "Haifa District",
            "country": "Israel",
            "region": "Asia"
        },
        {
            "name": "Beit She'arim (Roman-era Jewish village)",
            "address": "Bet She'arim National Park, Kiryat Tiv'on, Israel",
            "latitude": 32.703757,
            "longitude": 35.129933,
            "state": "Haifa District",
            "country": "Israel",
            "region": "Asia"
        },
        {
            "name": "Belvoir Castle (Israel)",
            "address": "Jordan Star National Park, Israel",
            "latitude": 32.595426,
            "longitude": 35.521476,
            "state": "North District",
            "country": "Israel",
            "region": "Asia"
        },
        {
            "name": "Beth Alpha",
            "address": "Beit Alfa, Israel",
            "latitude": 32.516357,
            "longitude": 35.430499,
            "state": "North District",
            "country": "Israel",
            "region": "Asia"
        },
        {
            "name": "Caesarea Maritima",
            "address": "Caesarea, Israel",
            "latitude": 32.519016,
            "longitude": 34.904544,
            "state": "Haifa District",
            "country": "Israel",
            "region": "Asia"
        },
        {
            "name": "Canada Park",
            "address": "Parks Canada, 30 Rue Victoria, Gatineau, QC J8X 0B3, Canada",
            "latitude": 45.4283895,
            "longitude": -75.7144423,
            "state": "Québec",
            "country": "Canada",
            "region": "Asia"
        },
        {
            "name": "Capernaum",
            "address": "Capernaum, Israel",
            "latitude": 32.88033,
            "longitude": 35.573307,
            "state": "North District",
            "country": "Israel",
            "region": "Asia"
        },
        {
            "name": "Castel National Park",
            "address": "Castel National Park, Keren Kayemet St, Mevaseret Zion, Israel",
            "latitude": 31.7973874,
            "longitude": 35.1421738,
            "state": "Jerusalem District",
            "country": "Israel",
            "region": "Asia"
        },
        {
            "name": "Ein Avdat",
            "address": "Ein Avdat National Park, עין עבדת, Israel",
            "latitude": 30.8327727,
            "longitude": 34.7712374,
            "state": "South District",
            "country": "Israel",
            "region": "Asia"
        },
        {
            "name": "Ein Gedi",
            "address": "Ein Gedi Reserve, Ein Gedi, Israel",
            "latitude": 31.4664,
            "longitude": 35.387983,
            "state": "South District",
            "country": "Israel",
            "region": "Asia"
        },
        {
            "name": "Ein Hemed",
            "address": "Ein Hemed National Park, Israel",
            "latitude": 31.794795,
            "longitude": 35.127566,
            "state": "Jerusalem District",
            "country": "Israel",
            "region": "Asia"
        },
        {
            "name": "Emek Tzurim National Park",
            "address": "Národní park Emek Curim, Jerusalem",
            "latitude": 31.7891393,
            "longitude": 35.2438225,
            "state": null,
            "country": null,
            "region": "Asia"
        },
        {
            "name": "Eshkol National Park",
            "address": "HaBsor National Park (Eshkol Park), Israel",
            "latitude": 31.30839,
            "longitude": 34.489593,
            "state": "South District",
            "country": "Israel",
            "region": "Asia"
        },
        {
            "name": "Gan HaShlosha National Park",
            "address": "Gan HaShlosha National Park, Israel",
            "latitude": 32.507101,
            "longitude": 35.44552,
            "state": "North District",
            "country": "Israel",
            "region": "Asia"
        },
        {
            "name": "Gezer",
            "address": "Gezer, Israel",
            "latitude": 31.876349,
            "longitude": 34.92111,
            "state": "Center District",
            "country": "Israel",
            "region": "Asia"
        },
        {
            "name": "Hammat Tiberias",
            "address": "Hamat Tiberias National Park, Tiberias, Israel",
            "latitude": 32.766035,
            "longitude": 35.551461,
            "state": "North District",
            "country": "Israel",
            "region": "Asia"
        },
        {
            "name": "HaSharon Park",
            "address": "HaSharon Park, פארק השרון, Hadera, Israel",
            "latitude": 32.4141945,
            "longitude": 34.8961342,
            "state": "Haifa District",
            "country": "Israel",
            "region": "Asia"
        },
        {
            "name": "Tel Hazor",
            "address": "Tel Hazor Nationaal Park, Ayelet HaShahar, Israel",
            "latitude": 33.017442,
            "longitude": 35.56818,
            "state": "North District",
            "country": "Israel",
            "region": "Asia"
        },
        {
            "name": "Herodium",
            "address": "Herodion National Park",
            "latitude": 31.665718,
            "longitude": 35.241717,
            "state": null,
            "country": null,
            "region": "Asia"
        },
        {
            "name": "Hexagon pool",
            "address": "Mosqueta N° 174, Guerrero, Cuauhtémoc, 06300 Ciudad de México, CDMX",
            "latitude": 37.09024,
            "longitude": -95.712891,
            "state": "Ciudad de México",
            "country": "",
            "region": "Asia"
        },
        {
            "name": "Hippos",
            "address": "2472 N Shore Dr #2464, Lowbanks, ON N0A 1K0, Canada",
            "latitude": 42.8591553,
            "longitude": -79.4718177,
            "state": "Ontario",
            "country": "Canada",
            "region": "Asia"
        },
        {
            "name": "Hurshat Tal",
            "address": "Hurshat Tal National Park, Israel",
            "latitude": 33.219323,
            "longitude": 35.6309011,
            "state": "North District",
            "country": "Israel",
            "region": "Asia"
        },
        {
            "name": "Jerusalem Walls-City of David National Park",
            "address": "Sovev Homot Yerushalayim, Jerusalem",
            "latitude": 31.769963,
            "longitude": 35.231571,
            "state": null,
            "country": null,
            "region": "Asia"
        },
        {
            "name": "Khirbat al-Minya",
            "address": "Israel",
            "latitude": 32.864956,
            "longitude": 35.536212,
            "state": "North District",
            "country": "Israel",
            "region": "Asia"
        },
        {
            "name": "Kursi, Sea of Galilee",
            "address": "Kursi National Park, כביש 92 פינת כביש 789",
            "latitude": 32.8261184,
            "longitude": 35.6502168,
            "state": null,
            "country": null,
            "region": "Asia"
        },
        {
            "name": "Ma'ayan Harod",
            "address": "Ma'ayan Harod National Park- Gideon's Spring, Israel",
            "latitude": 32.5500167,
            "longitude": 35.3563254,
            "state": "North District",
            "country": "Israel",
            "region": "Asia"
        },
        {
            "name": "Makhtesh Ramon",
            "address": "Makhtesh Ramon",
            "latitude": 30.6152797,
            "longitude": 34.8844867,
            "state": "South District",
            "country": "Israel",
            "region": "Asia"
        },
        {
            "name": "Mampsis",
            "address": "Mamshit National Park, Dimona, Israel",
            "latitude": 31.025668,
            "longitude": 35.064281,
            "state": "South District",
            "country": "Israel",
            "region": "Asia"
        },
        {
            "name": "Maresha",
            "address": "Israel",
            "latitude": 31.593061,
            "longitude": 34.898598,
            "state": "South District",
            "country": "Israel",
            "region": "Asia"
        },
        {
            "name": "Masada",
            "address": "2206 N California Ave, Chicago, IL 60647, USA",
            "latitude": 41.9220272,
            "longitude": -87.69766949999999,
            "state": "Illinois",
            "country": "United States",
            "region": "Asia"
        },
        {
            "name": "Mazor Mausoleum",
            "address": "El'ad, Israel",
            "latitude": 32.0466004,
            "longitude": 34.9461446,
            "state": "Center District",
            "country": "Israel",
            "region": "Asia"
        },
        {
            "name": "Tel Megiddo",
            "address": "Megiddo National Park - גן לאומי תל מגידו, Megiddo, 18230, Israel",
            "latitude": 32.5852727,
            "longitude": 35.1844781,
            "state": "North District",
            "country": "Israel",
            "region": "Asia"
        },
        {
            "name": "Migdal Afek",
            "address": "Migdal Tsedek National Park, Rosh Haayin, Israel",
            "latitude": 32.083657,
            "longitude": 34.956074,
            "state": "Center District",
            "country": "Israel",
            "region": "Asia"
        },
        {
            "name": "Montfort Castle",
            "address": "Montfort Fortress, Eilon, Israel",
            "latitude": 33.0444555,
            "longitude": 35.2266186,
            "state": "North District",
            "country": "Israel",
            "region": "Asia"
        },
        {
            "name": "Nimrod Castle",
            "address": "Nimrod Fortress National Park, מבצר, Nimrod",
            "latitude": 33.2523913,
            "longitude": 35.7125858,
            "state": null,
            "country": null,
            "region": "Asia"
        },
        {
            "name": "Nitzana (Nabataean city)",
            "address": "Israel",
            "latitude": 30.875459,
            "longitude": 34.43406400000001,
            "state": "South District",
            "country": "Israel",
            "region": "Asia"
        },
        {
            "name": "Qumran",
            "address": "1, kibbutz kalya",
            "latitude": 31.74159229999999,
            "longitude": 35.4633419,
            "state": null,
            "country": null,
            "region": "Asia"
        },
        {
            "name": "Rosh HaNikra grottoes",
            "address": "Israel",
            "latitude": 33.0934699,
            "longitude": 35.10422550000001,
            "state": "North District",
            "country": "Israel",
            "region": "Asia"
        },
        {
            "name": "Samaria (ancient city)",
            "address": "Samaria, IN 46181, USA",
            "latitude": 39.4039378,
            "longitude": -86.1863788,
            "state": "Indiana",
            "country": "United States",
            "region": "Asia"
        },
        {
            "name": "Sepphoris",
            "address": "434 S State St, Ann Arbor, MI 48109, USA",
            "latitude": 42.2767692,
            "longitude": -83.7410085,
            "state": "Michigan",
            "country": "United States",
            "region": "Asia"
        },
        {
            "name": "Tel Shikmona",
            "address": "Haifa, Israel",
            "latitude": 32.8252461,
            "longitude": 34.9556219,
            "state": "Haifa District",
            "country": "Israel",
            "region": "Asia"
        },
        {
            "name": "Shivta",
            "address": "Shivta, Israel",
            "latitude": 30.881121,
            "longitude": 34.630836,
            "state": "South District",
            "country": "Israel",
            "region": "Asia"
        },
        {
            "name": "Sidna Ali Mosque",
            "address": "Herzliya, Israel",
            "latitude": 32.1878128,
            "longitude": 34.8058128,
            "state": "Tel Aviv District",
            "country": "Israel",
            "region": "Asia"
        },
        {
            "name": "Tabachnik Garden",
            "address": "Tabechnik National & University Garden, Jerusalem",
            "latitude": 31.79158919999999,
            "longitude": 35.2412881,
            "state": null,
            "country": null,
            "region": "Asia"
        },
        {
            "name": "Mount Tabor",
            "address": "Mount Tabor, Israel",
            "latitude": 32.6866112,
            "longitude": 35.3902089,
            "state": "North District",
            "country": "Israel",
            "region": "Asia"
        },
        {
            "name": "Tel Jezreel",
            "address": "Jezreel Valley",
            "latitude": 32.5961748,
            "longitude": 35.2419056,
            "state": "North District",
            "country": "Israel",
            "region": "Asia"
        },
        {
            "name": "Tel Lachish",
            "address": "Israel",
            "latitude": 31.565229,
            "longitude": 34.84855,
            "state": "South District",
            "country": "Israel",
            "region": "Asia"
        },
        {
            "name": "Tel Yokneam",
            "address": "Tel Yokneam, Israel",
            "latitude": 32.641111,
            "longitude": 35.108333,
            "state": "North District",
            "country": "Israel",
            "region": "Asia"
        },
        {
            "name": "Tell es-Safi",
            "address": null,
            "latitude": null,
            "longitude": null,
            "state": null,
            "country": null,
            "region": "Asia"
        },
        {
            "name": "Yarkon Park",
            "address": "Hayarkon Park, Rokach Blvd, Tel Aviv-Yafo, 6902045, Israel",
            "latitude": 32.100744,
            "longitude": 34.807026,
            "state": "Tel Aviv District",
            "country": "Israel",
            "region": "Asia"
        },
        {
            "name": "Yehi'am Fortress National Park",
            "address": "Yehiam Fortress National Park, Yehiam, Israel",
            "latitude": 32.9946546,
            "longitude": 35.2215726,
            "state": "North District",
            "country": "Israel",
            "region": "Asia"
        },
        {
            "name": "Akan National Park‎",
            "address": "Akan-Mashu National Park, Akancho Akankoonsen, 釧路市 Hokkaido 085-0467, Japan",
            "latitude": 43.5655079,
            "longitude": 144.3620761,
            "state": "Hokkaido",
            "country": "Japan",
            "region": "Asia"
        },
        {
            "name": "Chūbu-Sangaku National Park‎",
            "address": "Chubusangaku National Park, 12883-1 Chikuniotsu, Otari, Kitaazumi District, Nagano 399-9422, Japan",
            "latitude": 36.4543841,
            "longitude": 137.6236372,
            "state": "Nagano",
            "country": "Japan",
            "region": "Asia"
        },
        {
            "name": "Fuji-Hakone-Izu National Park‎",
            "address": "Fuji Hakone Izu National Park, Motohakone, Hakone, Ashigarashimo District, Kanagawa 250-0522, Japan",
            "latitude": 35.2326406,
            "longitude": 139.0223177,
            "state": "Kanagawa",
            "country": "Japan",
            "region": "Asia"
        },
        {
            "name": "Kirishima-Yaku National Park‎",
            "address": "Kirishima Kinkowan National Park, Kirishima, Kagoshima 899-4201, Japan",
            "latitude": 31.9207977,
            "longitude": 130.868848,
            "state": "Kagoshima",
            "country": "Japan",
            "region": "Asia"
        },
        {
            "name": "Minami Alps National Park‎",
            "address": "Minami Alps National Park, Hasesugishima, Ina, Nagano 396-0406, Japan",
            "latitude": 35.6445796,
            "longitude": 138.2185814,
            "state": "Nagano",
            "country": "Japan",
            "region": "Asia"
        },
        {
            "name": "Shikotsu-Tōya National Park‎",
            "address": "Lake Shikotsu, Chitose, Hokkaido, Japan",
            "latitude": 42.7570235,
            "longitude": 141.3245714,
            "state": "Hokkaido",
            "country": "Japan",
            "region": "Asia"
        },
        {
            "name": "Abashiri Quasi-National Park",
            "address": "Abashiri National Park, Toetoko, Yubetsu, Mombetsu District, Hokkaido 099-6412, Japan",
            "latitude": 44.1864011,
            "longitude": 143.7636815,
            "state": "Hokkaido",
            "country": "Japan",
            "region": "Asia"
        },
        {
            "name": "Aichi Kōgen Quasi-National Park",
            "address": "Japan, 〒444-3206 Aichi, Toyota, Habuchō, 愛知高原国定公園",
            "latitude": 35.0331431,
            "longitude": 137.4096268,
            "state": "Aichi",
            "country": "Japan",
            "region": "Asia"
        },
        {
            "name": "Akan Mashu National Park",
            "address": "Akan-Mashu National Park, Akancho Akankoonsen, 釧路市 Hokkaido 085-0467, Japan",
            "latitude": 43.5655079,
            "longitude": 144.3620761,
            "state": "Hokkaido",
            "country": "Japan",
            "region": "Asia"
        },
        {
            "name": "Akiyoshidai Quasi-National Park",
            "address": "Akiyoshidai Quasi-National Park, Mine, Yamaguchi 754-0602, Japan",
            "latitude": 34.2540507,
            "longitude": 131.3043183,
            "state": "Yamaguchi",
            "country": "Japan",
            "region": "Asia"
        },
        {
            "name": "Amami Guntō National Park",
            "address": "Amami Guntō National Park, Amami, Oshima District, Kagoshima 894-1203, Japan",
            "latitude": 28.2777145,
            "longitude": 129.3644308,
            "state": "Kagoshima",
            "country": "Japan",
            "region": "Asia"
        },
        {
            "name": "Ashizuri-Uwakai National Park",
            "address": "Ashizuri-Uwakai National Park, Ainan, Minamiuwa District, Ehime 798-4216, Japan",
            "latitude": 32.7460955,
            "longitude": 132.9955823,
            "state": "Ehime",
            "country": "Japan",
            "region": "Asia"
        },
        {
            "name": "Aso Kujū National Park",
            "address": "Aso-Kuju National Park, Ichinomiyamachi Miyaji, Aso, Kumamoto 869-2612, Japan",
            "latitude": 32.8974879,
            "longitude": 131.102264,
            "state": "Kumamoto",
            "country": "Japan",
            "region": "Asia"
        },
        {
            "name": "Bandai-Asahi National Park",
            "address": "Bandai Asahi National Park, Oguni, Nishiokitama District, Yamagata 999-1216, Japan",
            "latitude": 37.8631179,
            "longitude": 139.6708797,
            "state": "Yamagata",
            "country": "Japan",
            "region": "Asia"
        },
        {
            "name": "Biwako Quasi-National Park",
            "address": "Biwako Quasi-National Park, Hikone, Shiga 521-1101, Japan",
            "latitude": 35.2380141,
            "longitude": 136.1660152,
            "state": "Shiga",
            "country": "Japan",
            "region": "Asia"
        },
        {
            "name": "Chichibu Tama Kai National Park",
            "address": "Chichibu-Tama-Kai National Park, Koshu, Yamanashi 404-0021, Japan",
            "latitude": 35.8531218,
            "longitude": 138.8620305,
            "state": "Yamanashi",
            "country": "Japan",
            "region": "Asia"
        },
        {
            "name": "Chōkai Quasi-National Park",
            "address": "Chōkai Quasi-National Park, Yoshide, Yuza, Akumi District, Yamagata 999-8302, Japan",
            "latitude": 39.0781926,
            "longitude": 140.0408766,
            "state": "Yamagata",
            "country": "Japan",
            "region": "Asia"
        },
        {
            "name": "Chūbu-Sangaku National Park",
            "address": "Chubusangaku National Park, 12883-1 Chikuniotsu, Otari, Kitaazumi District, Nagano 399-9422, Japan",
            "latitude": 36.4543841,
            "longitude": 137.6236372,
            "state": "Nagano",
            "country": "Japan",
            "region": "Asia"
        },
        {
            "name": "Daisen-Oki National Park",
            "address": "Daisen, Saihaku District, Tottori 689-3318, Japan",
            "latitude": 35.37815,
            "longitude": 133.5496956,
            "state": "Tottori",
            "country": "Japan",
            "region": "Asia"
        },
        {
            "name": "Daisetsuzan National Park",
            "address": "Daisetsuzan National Park, Sounkyo, Kamikawa, Kamikawa District, Hokkaido 078-1701, Japan",
            "latitude": 43.5083823,
            "longitude": 142.9843628,
            "state": "Hokkaido",
            "country": "Japan",
            "region": "Asia"
        },
        {
            "name": "Echigo Sanzan-Tadami Quasi-National Park",
            "address": "Japan, 〒946-0221 Fukushima, Uonuma, Sugawa, 越後三山只見国定公園",
            "latitude": 37.2688279,
            "longitude": 139.0511548,
            "state": "Fukushima",
            "country": "Japan",
            "region": "Asia"
        },
        {
            "name": "Echizen-Kaga Kaigan Quasi-National Park",
            "address": "Oga Quasi-National Park, 堂ヶ沢 Kitaurakitaura, Oga, Akita 010-0683, Japan",
            "latitude": 39.887364,
            "longitude": 139.7771621,
            "state": "Akita",
            "country": "Japan",
            "region": "Asia"
        },
        {
            "name": "Fuji-Hakone-Izu National Park",
            "address": "Fuji Hakone Izu National Park, Motohakone, Hakone, Ashigarashimo District, Kanagawa 250-0522, Japan",
            "latitude": 35.2326406,
            "longitude": 139.0223177,
            "state": "Kanagawa",
            "country": "Japan",
            "region": "Asia"
        },
        {
            "name": "Genkai Quasi-National Park",
            "address": "Genkai Quasi-National Park, 675 Shimakeya, Itoshima, Fukuoka 819-1335, Japan",
            "latitude": 33.5800346,
            "longitude": 130.0967307,
            "state": "Fukuoka",
            "country": "Japan",
            "region": "Asia"
        },
        {
            "name": "Hakusan National Park",
            "address": "Hakusan National Park, Shiramine, Hakusan, Ishikawa 920-2501, Japan",
            "latitude": 36.1568166,
            "longitude": 136.764656,
            "state": "Ishikawa",
            "country": "Japan",
            "region": "Asia"
        },